{
    "stores": [
    {
        "id": 1,
        "storeName": "장한평역 앞 붕어빵",
        "category": "붕어빵",
        "menu": ["팥 붕어빵", "슈크림 붕어빵"],
        "time": "08:00 ~ 22:00",
        "week": ["Mon", "Tue", "Wed", "Thu", "Fri", "Sat", "Sun"],
        "location" : {"lat" : 37.5618531473479, "lng" : 127.06429362688189}
    },
    {
        "id": 2,
        "storeName": "옛날 도시락 가게",
        "category": "도시락",
        "menu": ["고기 고구마 도시락", "치즈 닭가슴살 도시락"],
        "time": "07:30 ~ 20:00",
        "week": ["Mon", "Wed", "Fri", "Sat"],
        "location" : {"lat" : 37.561947591319566, "lng" : 127.0645879842888}
    },
    {
        "id": 3,
        "storeName": "신설동 카페",
        "category": "카페",
        "menu": ["아메리카노", "카페라떼", "초코 케이크"],
        "time": "10:00 ~ 21:00",
        "week": ["Tue", "Thu", "Sat", "Sun"],
        "location" : {"lat" : 37.561884595816075, "lng" : 127.0644521102149}
    },
    {
        "id": 4,
        "storeName": "행복 분식집",
        "category": "분식",
        "menu": ["떡볶이", "튀김", "라면"],
        "time": "11:00 ~ 23:00",
        "week": ["Mon", "Wed", "Fri", "Sat", "Sun"],
        "location" : {"lat" : 37.561785088589545,  "lng" : 127.0651763952261}
    },
    {
        "id": 5,
        "storeName": "새벽 배달음식",
        "category": "야식",
        "menu": ["치킨", "피자", "라면"],
        "time": "18:00 ~ 04:00",
        "week": ["Fri", "Sat", "Sun"],
        "location" : {"lat" : 37.561073457493755, "lng" : 127.0648928206867}
    },
    {
        "id": 6,
        "storeName": "건강한 샐러드집",
        "category": "샐러드",
        "menu": ["그린 샐러드", "치킨 콥 샐러드"],
        "time": "09:00 ~ 20:00",
        "week": ["Mon", "Wed", "Fri"],
        "location" : {"lat" : 37.56117293837242, "lng" : 127.0642138149659}
    },
    {
        "id": 7,
        "storeName": "맛있는 빵집",
        "category": "빵",
        "menu": ["크로와상", "딸기 생크림 빵"],
        "time": "07:00 ~ 18:00",
        "week": ["Tue", "Thu", "Sat"],
        "location" : {"lat" : 37.561937385349694, "lng" : 127.0667384554431}
    },
    {
        "id": 8,
        "storeName": "즉석떡볶이 트럭",
        "category": "분식",
        "menu": ["즉석떡볶이", "튀김"],
        "time": "16:00 ~ 02:00",
        "week": ["Sat", "Sun"],
        "location" : {"lat" : 37.5621110350228, "lng" : 127.06223391024743}
    },
    {
        "id": 9,
        "storeName": "헬시한 샌드위치 가게",
        "category": "샌드위치",
        "menu": ["토마토 모짜렐라 샌드위치", "닭가슴살 아보카도 샌드위치"],
        "time": "10:30 ~ 19:30",
        "week": ["Mon", "Thu", "Sat"],
        "location" :{"lat" : 37.56038770393165, "lng" : 127.0666804827572}
    }
    ]
    }